{"pageProps":{"villages":[{"municipality":"Pamplona","association":"Cagbunga Riverside Farmers Organization","lat":"13.63714","province":"Camarines Sur","lon":"123.106714","barangay":"Cagbunga"},{"lat":"13.567574","association":"TARBA (Tampadong Agrarian Reform Beneficiaries Association)","barangay":"Tampadong","province":"Camarines Sur","lon":"123.046109","municipality":"Pamplona"},{"municipality":"Pamplona","association":" VEVUFAI (Veneracion Urban Farmers Assocaition,Inc.)","lon":"123.062039","barangay":"Veneracion","lat":"13.555508","province":"Camarines Sur"},{"barangay":"Joroan","municipality":"Tiwi","lat":"13.489628","association":"Joroan Farmers and Fisherfollks Association","province":"Albay","lon":"123.620308"},{"lat":"14.269422","municipality":"Paracale","lon":"122.820835","barangay":"Labnig","association":"Paracale Corn and Cassava Farmers Association","province":"Camarines Norte"},{"barangay":"Alayao","province":"Camarines Norte","lat":"14.283999","municipality":"Capalonga","lon":"122.557276","association":"Cabibiroc-Alayao Farmers Association (CAFA)"},{"lon":"123.431072","barangay":"Marigondon","association":"AMIA (Asenso Marigondon Irrigators Association)","municipality":"Pio Duran","province":"Albay","lat":"13.054393"},{"lat":"13.885986","association":"Pe�afrancia Farmers and Fisherfolks Association","province":"Catanduanes","barangay":"Pe�afrancia","lon":"124.319818","municipality":"Viga"},{"lat":"13.77147","association":"Biong Farmers Association","lon":"124.362139","municipality":"Gigmoto","barangay":"Biong","province":"Catanduanes"},{"province":"Masbate","association":"San Mateo Farmers Association","lon":"123.817117","municipality":"Uson","lat":"12.190327","barangay":"San Mateo"},{"lat":"12.193129","province":"Masbate","lon":"123.801844","association":" Quezon Small Farmers Association MaQueba (Magsaysay,Quezon and Badling","barangay":"Quezon","municipality":"Uson"},{"lon":"123.343322","barangay":"Alas","province":"Masbate","lat":"12.261882","association":"Alas Farmers Association","municipality":"Mandaon"},{"lat":"13.028927","lon":"124.172603","municipality":"Prieto Diaz","barangay":"San Isidro","association":"San Isidro Farmers Association","province":"Sorsogon"},{"municipality":"Castilla","association":"Dinapa Farmers Association","lon":"123.786951","province":"Sorsogon","barangay":"Dinapa","lat":"12.908257"}],"provincesMunicipalities":[{"disabled":false,"municipalities":[{"label":"Buenavista","disabled":true,"id":0},{"label":"Butuan City","disabled":true,"id":1},{"disabled":true,"id":2,"label":"Cabadbaran City"},{"label":"Carmen","disabled":true,"id":3},{"label":"Jabonga","id":4,"disabled":true},{"id":5,"label":"Kitcharao","disabled":true},{"disabled":true,"id":6,"label":"Las Nieves"},{"disabled":true,"id":7,"label":"Magallanes"},{"label":"Nasipit","disabled":true,"id":8},{"label":"Remedios T. Romualdez","id":9,"disabled":true},{"id":10,"disabled":true,"label":"Santiago"},{"id":11,"label":"Tubay","disabled":true}],"label":"Agusan del Norte","id":0},{"municipalities":[{"label":"Bayugan City","id":0,"disabled":true},{"label":"Bunawan","id":1,"disabled":true},{"label":"Esperanza","disabled":true,"id":2},{"disabled":true,"label":"La Paz","id":3},{"id":4,"label":"Loreto","disabled":true},{"label":"Prosperidad","id":5,"disabled":true},{"label":"Rosario","id":6,"disabled":true},{"label":"San Francisco","disabled":true,"id":7},{"id":8,"label":"San Luis","disabled":true},{"id":9,"disabled":true,"label":"Santa Josefa"},{"label":"Sibagat","id":10,"disabled":true},{"disabled":true,"label":"Talacogon","id":11},{"disabled":true,"id":12,"label":"Trento"},{"label":"Veruela","disabled":true,"id":13}],"disabled":false,"id":1,"label":"Agusan del Sur"},{"label":"Dinagat Islands","municipalities":[{"id":0,"disabled":true,"label":"Basilisa"},{"disabled":true,"label":"Cagdianao","id":1},{"id":2,"label":"Dinagat","disabled":true},{"disabled":true,"label":"Libjo","id":3},{"id":4,"disabled":true,"label":"Loreto"},{"label":"San Jose","disabled":true,"id":5},{"disabled":true,"id":6,"label":"Tubajon"}],"disabled":false,"id":2},{"id":3,"label":"Surigao del Norte","disabled":false,"municipalities":[{"id":0,"label":"Alegria","disabled":true},{"label":"Bacuag","disabled":true,"id":1},{"id":2,"label":"Burgos","disabled":true},{"label":"Claver","id":3,"disabled":true},{"label":"Dapa","id":4,"disabled":true},{"label":"Del Carmen","id":5,"disabled":true},{"label":"General Luna","id":6,"disabled":true},{"disabled":true,"id":7,"label":"Gigaquit"},{"id":8,"disabled":true,"label":"Mainit"},{"id":9,"disabled":true,"label":"Malimono"},{"id":10,"label":"Pilar","disabled":true},{"label":"Placer","disabled":true,"id":11},{"label":"San Benito","id":12,"disabled":true},{"disabled":true,"label":"San Francisco","id":13},{"label":"San Isidro","disabled":true,"id":14},{"disabled":true,"label":"Santa Monica","id":15},{"id":16,"label":"Sison","disabled":true},{"id":17,"label":"Socorro","disabled":true},{"id":18,"label":"Surigao City","disabled":true},{"label":"Tagana-An","disabled":true,"id":19},{"id":20,"label":"Tubod","disabled":true}]},{"disabled":false,"id":4,"label":"Surigao del Sur","municipalities":[{"label":"Barobo","disabled":true,"id":0},{"disabled":true,"label":"Bayabas","id":1},{"id":2,"label":"Bislig City","disabled":true},{"label":"Cagwait","disabled":true,"id":3},{"disabled":true,"label":"Cantilan","id":4},{"label":"Carmen","disabled":true,"id":5},{"disabled":true,"id":6,"label":"Carrascal"},{"id":7,"disabled":true,"label":"Cortes"},{"label":"Hinatuan","disabled":true,"id":8},{"disabled":true,"label":"Lanuza","id":9},{"disabled":true,"id":10,"label":"Lianga"},{"id":11,"label":"Lingig","disabled":true},{"id":12,"label":"Madrid","disabled":true},{"disabled":true,"label":"Marihatag","id":13},{"id":14,"disabled":true,"label":"San Agustin"},{"id":15,"label":"San Miguel","disabled":true},{"label":"Tagbina","disabled":true,"id":16},{"id":17,"disabled":true,"label":"Tago"},{"id":18,"label":"Tandag City","disabled":true}]}],"media":{"description":"ACAP Caraga provides relevant weather and climate information which can be used in developing tailored advisories and crop recommendations.","url":"https://firebasestorage.googleapis.com/v0/b/acap-caraga-region.appspot.com/o/og_home_1200.png?alt=media&token=59d8ca28-09af-46c6-82fd-f6d63abd4059","path":"https://amia-cis-my5w.onrender.com"}},"__N_SSG":true}