{"pageProps":{"villages":[{"association":"Agipawa Farmers Irrigators Association Incorporated","province":"Agusan del Sur","lon":"125.7493444","municipality":"Talacogon","barangay":"Zillovia","lat":"8.446663889"},{"lat":"8.421322222","barangay":"Buena Gracia","municipality":"Talacogon","lon":"125.7929778","association":"Tumaliktik Farmers Association","province":"Agusan del Sur"},{"barangay":"Labnig","province":"Agusan del Sur","lat":"8.450186111","municipality":"Talacogon","lon":"125.8050556","association":"Labyawon Irrigators Association Incorporated"},{"barangay":"Jubgan","province":"Surigao del Norte","municipality":"San Francisco","lat":"9.6803376","association":"Jubgan Rural Improvement Club","lon":"125.3959833"},{"municipality":"San Francisco","barangay":"Banbanon","province":"Surigao del Norte","lat":"9.7646293","lon":"125.4073181","association":"Banbanon Farmers Service Irrigators Association Incorporated"},{"association":"Livestock and Poultry Raisers Association","lat":"9.7688871","province":"Surigao del Norte","municipality":"San Francisco","barangay":"Diaz","lon":"125.4139375"},{"municipality":"Tubajon","lon":"125.5826085","association":"Junction Navarro Vegetables Grower Association","province":"Dinagat Islands","barangay":"Navarro","lat":"10.2648121"},{"municipality":"Tubajon","lat":"10.3146552","association":"Tubajon Agricultural Coconut Farmers Association","province":"Dinagat Islands","barangay":"Sta. Cruz","lon":"125.5642844"},{"barangay":"Diaz","province":"Dinagat Islands","lat":"10.2953706","association":"Diaz Independent Womens Organization","municipality":"Tubajon","lon":"125.6052393"},{"barangay":"Cuyago","lat":"9.334937","association":"Association of Cuyago Farmers and Farmworkers","lon":"125.549666","municipality":"Jabonga","province":"Agusan del Norte"},{"association":"Magsaysay Poblacion Farmers Association","lon":"125.539639","lat":"9.329158","province":"Agusan del Norte","municipality":"Jabonga","barangay":"Magsaysay"},{"province":"Surigao del Sur","lat":"9.22607","lon":"126.0367","barangay":"Agsam","association":"Agsam Ipil Irrigators Association","municipality":"Lanuza"},{"barangay":"Bunga","lat":"9.252686","province":"Surigao del Sur","municipality":"Lanuza","lon":"126.009296","association":"Bunga Samahang Nayon Multi-Purpose Cooperative"},{"province":"Surigao del Sur","association":"Sibahay Coconut Farmerâ€™s Organization","lat":"9.243742","municipality":"Lanuza","barangay":"Sibahay","lon":"126.092315"},{"association":"Manapa","municipality":"Buenavista","lat":"8.9671","province":"Agusan del Norte","barangay":"Manapa","lon":"125.4371"}],"provincesMunicipalities":[{"id":0,"disabled":false,"municipalities":[{"label":"Buenavista","id":0,"disabled":false},{"disabled":false,"label":"Butuan City","id":1},{"id":2,"disabled":false,"label":"Cabadbaran City"},{"disabled":false,"id":3,"label":"Carmen"},{"label":"Jabonga","disabled":false,"id":4},{"label":"Kitcharao","disabled":false,"id":5},{"disabled":false,"id":6,"label":"Las Nieves"},{"id":7,"disabled":false,"label":"Magallanes"},{"id":8,"label":"Nasipit","disabled":false},{"id":9,"label":"Remedios T. Romualdez","disabled":false},{"label":"Santiago","disabled":false,"id":10},{"disabled":false,"id":11,"label":"Tubay"}],"label":"Agusan del Norte"},{"label":"Agusan del Sur","disabled":false,"municipalities":[{"label":"Bayugan City","id":0,"disabled":false},{"label":"Bunawan","disabled":false,"id":1},{"disabled":false,"label":"Esperanza","id":2},{"label":"La Paz","id":3,"disabled":false},{"id":4,"disabled":false,"label":"Loreto"},{"disabled":false,"label":"Prosperidad","id":5},{"label":"Rosario","id":6,"disabled":false},{"label":"San Francisco","disabled":false,"id":7},{"disabled":false,"label":"San Luis","id":8},{"disabled":false,"label":"Santa Josefa","id":9},{"disabled":false,"id":10,"label":"Sibagat"},{"id":11,"disabled":false,"label":"Talacogon"},{"id":12,"label":"Trento","disabled":false},{"id":13,"disabled":false,"label":"Veruela"}],"id":1},{"disabled":false,"municipalities":[{"id":0,"label":"Basilisa","disabled":false},{"disabled":false,"id":1,"label":"Cagdianao"},{"label":"Dinagat","id":2,"disabled":false},{"label":"Libjo","disabled":false,"id":3},{"id":4,"disabled":false,"label":"Loreto"},{"disabled":false,"label":"San Jose","id":5},{"label":"Tubajon","id":6,"disabled":false}],"id":2,"label":"Dinagat Islands"},{"municipalities":[{"id":0,"label":"Alegria","disabled":false},{"label":"Bacuag","disabled":false,"id":1},{"disabled":false,"label":"Burgos","id":2},{"disabled":false,"label":"Claver","id":3},{"id":4,"disabled":false,"label":"Dapa"},{"id":5,"disabled":false,"label":"Del Carmen"},{"disabled":false,"id":6,"label":"General Luna"},{"disabled":false,"label":"Gigaquit","id":7},{"label":"Mainit","disabled":false,"id":8},{"disabled":false,"id":9,"label":"Malimono"},{"label":"Pilar","disabled":false,"id":10},{"disabled":false,"label":"Placer","id":11},{"disabled":false,"id":12,"label":"San Benito"},{"disabled":false,"label":"San Francisco","id":13},{"id":14,"label":"San Isidro","disabled":false},{"id":15,"label":"Santa Monica","disabled":false},{"label":"Sison","disabled":false,"id":16},{"label":"Socorro","id":17,"disabled":false},{"disabled":false,"label":"Surigao City","id":18},{"id":19,"label":"Tagana-An","disabled":false},{"label":"Tubod","id":20,"disabled":false}],"disabled":false,"label":"Surigao del Norte","id":3},{"label":"Surigao del Sur","municipalities":[{"id":0,"label":"Barobo","disabled":false},{"id":1,"label":"Bayabas","disabled":false},{"id":2,"label":"Bislig City","disabled":false},{"label":"Cagwait","disabled":false,"id":3},{"id":4,"label":"Cantilan","disabled":false},{"id":5,"disabled":false,"label":"Carmen"},{"label":"Carrascal","disabled":false,"id":6},{"disabled":false,"label":"Cortes","id":7},{"disabled":false,"id":8,"label":"Hinatuan"},{"label":"Lanuza","id":9,"disabled":false},{"disabled":false,"label":"Lianga","id":10},{"label":"Lingig","id":11,"disabled":false},{"disabled":false,"label":"Madrid","id":12},{"label":"Marihatag","disabled":false,"id":13},{"id":14,"label":"San Agustin","disabled":false},{"disabled":true,"id":15,"label":"San Miguel"},{"disabled":false,"id":16,"label":"Tagbina"},{"disabled":false,"label":"Tago","id":17},{"label":"Tandag City","disabled":true,"id":18},{"label":"San Miguel ","disabled":false,"id":19,"iscalendar":true},{"label":"Tandag","id":20,"disabled":false,"iscalendar":true}],"id":4,"disabled":false}],"media":{"description":"Agro-Climatic Advisory Portal-Caraga (ACAP-Caraga) serves as a centralized hub for the development of Climate Information Services (CIS) in the Caraga region. It contains relevant weather and climate information which can be used in developing tailored advisories and crop recommendations.","url":"https://firebasestorage.googleapis.com/v0/b/acap-caraga-prodd.appspot.com/o/Assets%2Fhome.png?alt=media&token=edb57ea5-3383-40cd-b07e-0ed2c8ea05f0","path":"https://amia-cis-my5w.onrender.com"}},"__N_SSG":true}